{"type": "FeatureCollection", "features": [{"type": "Feature", "geometry": {"type": "Point", "coordinates": [-87.77681, 41.87085]}, "properties": {"name": "Austin (Blue)"}}, {"type": "Feature", "geometry": {"type": "Point", "coordinates": [-87.80318, 41.88685]}, "properties": {"name": "Harlem/Lake"}}, {"type": "Feature", "geometry": {"type": "Point", "coordinates": [-87.7254, 41.88541]}, "properties": {"name": "Pulaski (Green)"}}, {"type": "Feature", "geometry": {"type": "Point", "coordinates": [-87.63374, 41.87872]}, "properties": {"name": "Quincy"}}, {"type": "Feature", "geometry": {"type": "Point", "coordinates": [-87.68354, 42.04771]}, "properties": {"name": "Davis"}}, {"type": "Feature", "geometry": {"type": "Point", "coordinates": [-87.71225, 41.93911]}, "properties": {"name": "Belmont (Blue)"}}, {"type": "Feature", "geometry": {"type": "Point", "coordinates": [-87.6293, 41.87818]}, "properties": {"name": "Jackson (Blue)"}}, {"type": "Feature", "geometry": {"type": "Point", "coordinates": [-87.65466, 41.9539]}, "properties": {"name": "Sheridan"}}, {"type": "Feature", "geometry": {"type": "Point", "coordinates": [-87.67864, 41.96629]}, "properties": {"name": "Damen (Brown)"}}, {"type": "Feature", "geometry": {"type": "Point", "coordinates": [-87.66591, 42.00836]}, "properties": {"name": "Morse"}}, {"type": "Feature", "geometry": {"type": "Point", "coordinates": [-87.68062, 41.82935]}, "properties": {"name": "35th/Archer"}}, {"type": "Feature", "geometry": {"type": "Point", "coordinates": [-87.61849, 41.80209]}, "properties": {"name": "51st"}}, {"type": "Feature", "geometry": {"type": "Point", "coordinates": [-87.75192, 42.03895]}, "properties": {"name": "Dempster-Skokie"}}, {"type": "Feature", "geometry": {"type": "Point", "coordinates": [-87.72431, 41.85373]}, "properties": {"name": "Pulaski (Pink)"}}, {"type": "Feature", "geometry": {"type": "Point", "coordinates": [-87.63174, 41.8768]}, "properties": {"name": "LaSalle/Van Buren"}}, {"type": "Feature", "geometry": {"type": "Point", "coordinates": [-87.66697, 41.88527]}, "properties": {"name": "Ashland (Green/Pink)"}}, {"type": "Feature", "geometry": {"type": "Point", "coordinates": [-87.7916, 41.87211]}, "properties": {"name": "Oak Park (Blue)"}}, {"type": "Feature", "geometry": {"type": "Point", "coordinates": [-87.63064, 41.83119]}, "properties": {"name": "Sox-35th"}}, {"type": "Feature", "geometry": {"type": "Point", "coordinates": [-87.67597, 41.85452]}, "properties": {"name": "Damen (Pink)"}}, {"type": "Feature", "geometry": {"type": "Point", "coordinates": [-87.68844, 41.87548]}, "properties": {"name": "Western (Blue - Forest Park Branch)"}}, {"type": "Feature", "geometry": {"type": "Point", "coordinates": [-87.83803, 41.98425]}, "properties": {"name": "Cumberland"}}, {"type": "Feature", "geometry": {"type": "Point", "coordinates": [-87.62511, 41.75042]}, "properties": {"name": "79th"}}, {"type": "Feature", "geometry": {"type": "Point", "coordinates": [-87.70604, 41.87434]}, "properties": {"name": "Kedzie-Homan"}}, {"type": "Feature", "geometry": {"type": "Point", "coordinates": [-87.67954, 42.03346]}, "properties": {"name": "Main"}}, {"type": "Feature", "geometry": {"type": "Point", "coordinates": [-87.76565, 41.88739]}, "properties": {"name": "Central (Green)"}}, {"type": "Feature", "geometry": {"type": "Point", "coordinates": [-87.66377, 41.77886]}, "properties": {"name": "Ashland/63rd"}}, {"type": "Feature", "geometry": {"type": "Point", "coordinates": [-87.62137, 41.82173]}, "properties": {"name": "Indiana"}}, {"type": "Feature", "geometry": {"type": "Point", "coordinates": [-87.68402, 41.80455]}, "properties": {"name": "Western (Orange)"}}, {"type": "Feature", "geometry": {"type": "Point", "coordinates": [-87.6665, 41.90335]}, "properties": {"name": "Division"}}, {"type": "Feature", "geometry": {"type": "Point", "coordinates": [-87.62802, 41.89167]}, "properties": {"name": "Grand (Red)"}}, {"type": "Feature", "geometry": {"type": "Point", "coordinates": [-87.65867, 41.97798]}, "properties": {"name": "Berwyn"}}, {"type": "Feature", "geometry": {"type": "Point", "coordinates": [-87.64971, 41.87547]}, "properties": {"name": "UIC-Halsted"}}, {"type": "Feature", "geometry": {"type": "Point", "coordinates": [-87.66362, 41.94374]}, "properties": {"name": "Southport"}}, {"type": "Feature", "geometry": {"type": "Point", "coordinates": [-87.62944, 41.88316]}, "properties": {"name": "Washington"}}, {"type": "Feature", "geometry": {"type": "Point", "coordinates": [-87.63089, 41.88574]}, "properties": {"name": "Clark/Lake"}}, {"type": "Feature", "geometry": {"type": "Point", "coordinates": [-87.81732, 41.87426]}, "properties": {"name": "Forest Park"}}, {"type": "Feature", "geometry": {"type": "Point", "coordinates": [-87.68334, 42.05828]}, "properties": {"name": "Noyes"}}, {"type": "Feature", "geometry": {"type": "Point", "coordinates": [-87.74534, 41.85182]}, "properties": {"name": "Cicero (Pink)"}}, {"type": "Feature", "geometry": {"type": "Point", "coordinates": [-87.64098, 41.87554]}, "properties": {"name": "Clinton (Blue)"}}, {"type": "Feature", "geometry": {"type": "Point", "coordinates": [-87.69477, 41.85411]}, "properties": {"name": "California (Pink)"}}, {"type": "Feature", "geometry": {"type": "Point", "coordinates": [-87.62434, 41.72238]}, "properties": {"name": "95th/Dan Ryan"}}, {"type": "Feature", "geometry": {"type": "Point", "coordinates": [-87.63392, 41.88897]}, "properties": {"name": "Merchandise Mart (Brown/Purple)"}}, {"type": "Feature", "geometry": {"type": "Point", "coordinates": [-87.65946, 41.87592]}, "properties": {"name": "Racine"}}, {"type": "Feature", "geometry": {"type": "Point", "coordinates": [-87.7447, 41.88652]}, "properties": {"name": "Cicero (Green)"}}, {"type": "Feature", "geometry": {"type": "Point", "coordinates": [-87.64758, 41.89119]}, "properties": {"name": "Grand (Blue)"}}, {"type": "Feature", "geometry": {"type": "Point", "coordinates": [-87.61833, 41.79517]}, "properties": {"name": "Garfield (Green)"}}, {"type": "Feature", "geometry": {"type": "Point", "coordinates": [-87.68356, 42.05416]}, "properties": {"name": "Foster"}}, {"type": "Feature", "geometry": {"type": "Point", "coordinates": [-87.65313, 41.93273]}, "properties": {"name": "Diversey (Brown/Purple)"}}, {"type": "Feature", "geometry": {"type": "Point", "coordinates": [-87.65793, 41.96548]}, "properties": {"name": "Wilson"}}, {"type": "Feature", "geometry": {"type": "Point", "coordinates": [-87.72923, 41.95293]}, "properties": {"name": "Irving Park (Blue)"}}, {"type": "Feature", "geometry": {"type": "Point", "coordinates": [-87.6276, 41.87815]}, "properties": {"name": "Jackson (Red)"}}, {"type": "Feature", "geometry": {"type": "Point", "coordinates": [-87.69724, 41.92216]}, "properties": {"name": "California (Blue)"}}, {"type": "Feature", "geometry": {"type": "Point", "coordinates": [-87.75669, 41.85177]}, "properties": {"name": "54th/Cermak"}}, {"type": "Feature", "geometry": {"type": "Point", "coordinates": [-87.67754, 41.90985]}, "properties": {"name": "Damen (Blue)"}}, {"type": "Feature", "geometry": {"type": "Point", "coordinates": [-87.73326, 41.85375]}, "properties": {"name": "Kostner"}}, {"type": "Feature", "geometry": {"type": "Point", "coordinates": [-87.78366, 41.88716]}, "properties": {"name": "Ridgeland"}}, {"type": "Feature", "geometry": {"type": "Point", "coordinates": [-87.63141, 41.90392]}, "properties": {"name": "Clark/Division"}}, {"type": "Feature", "geometry": {"type": "Point", "coordinates": [-87.64918, 41.91065]}, "properties": {"name": "North/Clybourn"}}, {"type": "Feature", "geometry": {"type": "Point", "coordinates": [-87.65264, 41.91822]}, "properties": {"name": "Armitage (Brown/Purple)"}}, {"type": "Feature", "geometry": {"type": "Point", "coordinates": [-87.68736, 41.91616]}, "properties": {"name": "Western (Blue - O'Hare Branch)"}}, {"type": "Feature", "geometry": {"type": "Point", "coordinates": [-87.62604, 41.87951]}, "properties": {"name": "Adams/Wabash"}}, {"type": "Feature", "geometry": {"type": "Point", "coordinates": [-87.6816, 42.04165]}, "properties": {"name": "Dempster"}}, {"type": "Feature", "geometry": {"type": "Point", "coordinates": [-87.75499, 41.88716]}, "properties": {"name": "Laramie"}}, {"type": "Feature", "geometry": {"type": "Point", "coordinates": [-87.63592, 41.89681]}, "properties": {"name": "Chicago (Brown/Purple)"}}, {"type": "Feature", "geometry": {"type": "Point", "coordinates": [-87.60586, 41.78031]}, "properties": {"name": "Cottage Grove"}}, {"type": "Feature", "geometry": {"type": "Point", "coordinates": [-87.63378, 41.88269]}, "properties": {"name": "Washington/Wells"}}, {"type": "Feature", "geometry": {"type": "Point", "coordinates": [-87.68513, 41.85422]}, "properties": {"name": "Western (Pink)"}}, {"type": "Feature", "geometry": {"type": "Point", "coordinates": [-87.8089, 41.98227]}, "properties": {"name": "Harlem (Blue - O'Hare Branch)"}}, {"type": "Feature", "geometry": {"type": "Point", "coordinates": [-87.65919, 41.99448]}, "properties": {"name": "Granville"}}, {"type": "Feature", "geometry": {"type": "Point", "coordinates": [-87.65849, 41.96898]}, "properties": {"name": "Lawrence"}}, {"type": "Feature", "geometry": {"type": "Point", "coordinates": [-87.71484, 41.85384]}, "properties": {"name": "Central Park"}}, {"type": "Feature", "geometry": {"type": "Point", "coordinates": [-87.62938, 41.8807]}, "properties": {"name": "Monroe (Blue)"}}, {"type": "Feature", "geometry": {"type": "Point", "coordinates": [-87.6393, 41.91041]}, "properties": {"name": "Sedgwick (Brown/Purple)"}}, {"type": "Feature", "geometry": {"type": "Point", "coordinates": [-87.67393, 41.87571]}, "properties": {"name": "Illinois Medical District"}}, {"type": "Feature", "geometry": {"type": "Point", "coordinates": [-87.85939, 41.98351]}, "properties": {"name": "Rosemont"}}, {"type": "Feature", "geometry": {"type": "Point", "coordinates": [-87.66915, 41.85791]}, "properties": {"name": "18th"}}, {"type": "Feature", "geometry": {"type": "Point", "coordinates": [-87.67833, 42.02761]}, "properties": {"name": "South Boulevard"}}, {"type": "Feature", "geometry": {"type": "Point", "coordinates": [-87.6282, 41.87686]}, "properties": {"name": "Harold Washington Library-State/Van Buren"}}, {"type": "Feature", "geometry": {"type": "Point", "coordinates": [-87.70164, 41.96605]}, "properties": {"name": "Francisco"}}, {"type": "Feature", "geometry": {"type": "Point", "coordinates": [-87.65907, 41.9901]}, "properties": {"name": "Thorndale"}}, {"type": "Feature", "geometry": {"type": "Point", "coordinates": [-87.90422, 41.97767]}, "properties": {"name": "O'Hare"}}, {"type": "Feature", "geometry": {"type": "Point", "coordinates": [-87.67289, 42.01906]}, "properties": {"name": "Howard"}}, {"type": "Feature", "geometry": {"type": "Point", "coordinates": [-87.63095, 41.78054]}, "properties": {"name": "63rd"}}, {"type": "Feature", "geometry": {"type": "Point", "coordinates": [-87.72566, 41.8738]}, "properties": {"name": "Pulaski (Blue)"}}, {"type": "Feature", "geometry": {"type": "Point", "coordinates": [-87.73788, 41.78661]}, "properties": {"name": "Midway"}}, {"type": "Feature", "geometry": {"type": "Point", "coordinates": [-87.64424, 41.77894]}, "properties": {"name": "Halsted (Green)"}}, {"type": "Feature", "geometry": {"type": "Point", "coordinates": [-87.72449, 41.79976]}, "properties": {"name": "Pulaski (Orange)"}}, {"type": "Feature", "geometry": {"type": "Point", "coordinates": [-87.74515, 41.87157]}, "properties": {"name": "Cicero (Blue)"}}, {"type": "Feature", "geometry": {"type": "Point", "coordinates": [-87.80696, 41.87349]}, "properties": {"name": "Harlem (Blue - Forest Park Branch)"}}, {"type": "Feature", "geometry": {"type": "Point", "coordinates": [-87.62572, 41.76837]}, "properties": {"name": "69th"}}, {"type": "Feature", "geometry": {"type": "Point", "coordinates": [-87.63097, 41.85321]}, "properties": {"name": "Cermak-Chinatown"}}, {"type": "Feature", "geometry": {"type": "Point", "coordinates": [-87.6941, 41.96612]}, "properties": {"name": "Rockwell"}}, {"type": "Feature", "geometry": {"type": "Point", "coordinates": [-87.70769, 41.92953]}, "properties": {"name": "Logan Square"}}, {"type": "Feature", "geometry": {"type": "Point", "coordinates": [-87.66953, 41.87155]}, "properties": {"name": "Polk"}}, {"type": "Feature", "geometry": {"type": "Point", "coordinates": [-87.70541, 41.85396]}, "properties": {"name": "Kedzie (Pink)"}}, {"type": "Feature", "geometry": {"type": "Point", "coordinates": [-87.69073, 42.07315]}, "properties": {"name": "Linden"}}, {"type": "Feature", "geometry": {"type": "Point", "coordinates": [-87.66532, 41.83923]}, "properties": {"name": "Ashland (Orange)"}}, {"type": "Feature", "geometry": {"type": "Point", "coordinates": [-87.70615, 41.88432]}, "properties": {"name": "Kedzie (Green)"}}, {"type": "Feature", "geometry": {"type": "Point", "coordinates": [-87.61883, 41.80921]}, "properties": {"name": "47th (Green)"}}, {"type": "Feature", "geometry": {"type": "Point", "coordinates": [-87.6277, 41.88074]}, "properties": {"name": "Monroe (Red)"}}, {"type": "Feature", "geometry": {"type": "Point", "coordinates": [-87.62583, 41.83168]}, "properties": {"name": "35th-Bronzeville-IIT"}}, {"type": "Feature", "geometry": {"type": "Point", "coordinates": [-87.64809, 41.84678]}, "properties": {"name": "Halsted (Orange)"}}, {"type": "Feature", "geometry": {"type": "Point", "coordinates": [-87.61555, 41.78013]}, "properties": {"name": "King Drive"}}, {"type": "Feature", "geometry": {"type": "Point", "coordinates": [-87.70441, 41.80424]}, "properties": {"name": "Kedzie (Orange)"}}, {"type": "Feature", "geometry": {"type": "Point", "coordinates": [-87.64178, 41.88568]}, "properties": {"name": "Clinton (Green/Pink)"}}, {"type": "Feature", "geometry": {"type": "Point", "coordinates": [-87.63116, 41.79542]}, "properties": {"name": "Garfield (Red)"}}, {"type": "Feature", "geometry": {"type": "Point", "coordinates": [-87.70882, 41.966]}, "properties": {"name": "Kedzie (Brown)"}}, {"type": "Feature", "geometry": {"type": "Point", "coordinates": [-87.66926, 42.01602]}, "properties": {"name": "Jarvis"}}, {"type": "Feature", "geometry": {"type": "Point", "coordinates": [-87.65853, 41.97332]}, "properties": {"name": "Argyle"}}, {"type": "Feature", "geometry": {"type": "Point", "coordinates": [-87.65327, 41.93603]}, "properties": {"name": "Wellington (Brown/Purple)"}}, {"type": "Feature", "geometry": {"type": "Point", "coordinates": [-87.65287, 41.9253]}, "properties": {"name": "Fullerton"}}, {"type": "Feature", "geometry": {"type": "Point", "coordinates": [-87.63094, 41.81032]}, "properties": {"name": "47th (Red)"}}, {"type": "Feature", "geometry": {"type": "Point", "coordinates": [-87.71846, 41.9466]}, "properties": {"name": "Addison (Blue)"}}, {"type": "Feature", "geometry": {"type": "Point", "coordinates": [-87.68562, 42.06399]}, "properties": {"name": "Central (Purple)"}}, {"type": "Feature", "geometry": {"type": "Point", "coordinates": [-87.77414, 41.88729]}, "properties": {"name": "Austin (Green)"}}, {"type": "Feature", "geometry": {"type": "Point", "coordinates": [-87.61902, 41.81646]}, "properties": {"name": "43rd"}}, {"type": "Feature", "geometry": {"type": "Point", "coordinates": [-87.76159, 41.97023]}, "properties": {"name": "Jefferson Park Transit Center"}}, {"type": "Feature", "geometry": {"type": "Point", "coordinates": [-87.71307, 41.9679]}, "properties": {"name": "Kimball"}}, {"type": "Feature", "geometry": {"type": "Point", "coordinates": [-87.66106, 42.00107]}, "properties": {"name": "Loyola"}}, {"type": "Feature", "geometry": {"type": "Point", "coordinates": [-87.67091, 41.94362]}, "properties": {"name": "Paulina"}}, {"type": "Feature", "geometry": {"type": "Point", "coordinates": [-87.65338, 41.93975]}, "properties": {"name": "Belmont (Red/Brown/Purple)"}}, {"type": "Feature", "geometry": {"type": "Point", "coordinates": [-87.7429, 41.9609]}, "properties": {"name": "Montrose (Blue)"}}, {"type": "Feature", "geometry": {"type": "Point", "coordinates": [-87.63172, 41.87557]}, "properties": {"name": "LaSalle"}}, {"type": "Feature", "geometry": {"type": "Point", "coordinates": [-87.79378, 41.88699]}, "properties": {"name": "Oak Park (Green)"}}, {"type": "Feature", "geometry": {"type": "Point", "coordinates": [-87.69623, 41.88422]}, "properties": {"name": "California (Green)"}}, {"type": "Feature", "geometry": {"type": "Point", "coordinates": [-87.65884, 41.9835]}, "properties": {"name": "Bryn Mawr"}}, {"type": "Feature", "geometry": {"type": "Point", "coordinates": [-87.62703, 41.86738]}, "properties": {"name": "Roosevelt"}}, {"type": "Feature", "geometry": {"type": "Point", "coordinates": [-87.65521, 41.89608]}, "properties": {"name": "Chicago (Blue)"}}, {"type": "Feature", "geometry": {"type": "Point", "coordinates": [-87.65362, 41.94732]}, "properties": {"name": "Addison (Red)"}}, {"type": "Feature", "geometry": {"type": "Point", "coordinates": [-87.62472, 41.73537]}, "properties": {"name": "87th"}}, {"type": "Feature", "geometry": {"type": "Point", "coordinates": [-87.67464, 41.94703]}, "properties": {"name": "Addison (Brown)"}}, {"type": "Feature", "geometry": {"type": "Point", "coordinates": [-87.62818, 41.89667]}, "properties": {"name": "Chicago (Red)"}}, {"type": "Feature", "geometry": {"type": "Point", "coordinates": [-87.67487, 41.95452]}, "properties": {"name": "Irving Park (Brown)"}}, {"type": "Feature", "geometry": {"type": "Point", "coordinates": [-87.6885, 41.96616]}, "properties": {"name": "Western (Brown)"}}, {"type": "Feature", "geometry": {"type": "Point", "coordinates": [-87.62748, 41.87404]}, "properties": {"name": "Harrison"}}, {"type": "Feature", "geometry": {"type": "Point", "coordinates": [-87.67505, 41.96176]}, "properties": {"name": "Montrose (Brown)"}}, {"type": "Feature", "geometry": {"type": "Point", "coordinates": [-87.65213, 41.88558]}, "properties": {"name": "Morgan (Green/Pink)"}}, {"type": "Feature", "geometry": {"type": "Point", "coordinates": [-87.62781, 41.88481]}, "properties": {"name": "Lake (Subway)"}}, {"type": "Feature", "geometry": {"type": "Point", "coordinates": [-87.71652, 41.8849]}, "properties": {"name": "Conservatory-Central Park Drive"}}, {"type": "Feature", "geometry": {"type": "Point", "coordinates": [-87.74722, 42.02624]}, "properties": {"name": "Oakton-Skokie"}}, {"type": "Feature", "geometry": {"type": "Point", "coordinates": [-87.6264, 41.85312]}, "properties": {"name": "Cermak-McCormick Place"}}, {"type": "Feature", "geometry": {"type": "Point", "coordinates": [-87.62619, 41.88322]}, "properties": {"name": "Washington/Wabash"}}, {"type": "Feature", "geometry": {"type": "Point", "coordinates": [-87.67689, 41.88497]}, "properties": {"name": "Damen (Green)"}}]}